{
    "attractions": [
        {
            "id": "spooks_ville",
            "image": "https://matthewmcbain.github.io/JsonData/images/spooks_ville.jpg",
            "lat": 52.653,
            "lng": -2.22639,
            "name": "Spooks Ville",
            "region": "europe"
        },
        {
            "id": "rapido_racer",
            "image": "https://matthewmcbain.github.io/JsonData/images/rapido_racer.jpg",
            "lat": 52.655,
            "lng": -2.229,
            "name": "Rapido Racer",
            "region": "europe"
        },
        {
            "id": "the_roaring_loopster",
            "image": "https://matthewmcbain.github.io/JsonData/images/the_roaring_loopster.jpg",
            "lat": 52.66,
            "lng": -2.22639,
            "name": "The Roaring Loopster",
            "region": "europe"
        },
        {
            "id": "log_flume",
            "image": "https://matthewmcbain.github.io/JsonData/images/log_flume.jpg",
            "lat": 52.65,
            "lng": -2.23,
            "name": "Log Flume",
            "region": "europe"
        },
        {
            "id": "ride_the_rapids",
            "image": "https://matthewmcbain.github.io/JsonData/images/ride_the_rapids.jpg",
            "lat": 52.657786,
            "lng": -2.2309,
            "name": "Ride the Rapids",
            "region": "europe"
        },
        {
            "id": "the_teacups",
            "image": "https://matthewmcbain.github.io/JsonData/images/the_teacups.jpg",
            "lat": 52.655,
            "lng": -2.224,
            "name": "The teacups",
            "region": "europe"
        },
        {
            "id": "carousel",
            "image": "https://matthewmcbain.github.io/JsonData/images/carousel.jpg",
            "lat": 52.657786,
            "lng": -2.22639,
            "name": "Carousel",
            "region": "europe"
        }
    ],
    "regions": [
        {
            "coords": {
                "lat": 2.9660291,
                "lng": 1.3271339
            },
            "id": "africa-middle-east",
            "name": "Africa & Middle East",
            "zoom": 3.0
        },
        {
            "coords": {
                "lat": 0.0524811,
                "lng": 127.6560787
            },
            "id": "asia-pacific",
            "name": "Asia Pacific",
            "zoom": 3.0
        },
        {
            "coords": {
                "lat": 46.1352815,
                "lng": 7.4033438
            },
            "id": "europe",
            "name": "Europe",
            "zoom": 4.0
        },
        {
            "coords": {
                "lat": -17.5554497,
                "lng": -99.2316195
            },
            "id": "latin-america",
            "name": "Latin America",
            "zoom": 3.0
        },
        {
            "coords": {
                "lat": 45.7128252,
                "lng": -97.1547448
            },
            "id": "north-america",
            "name": "North America",
            "zoom": 4.0
        }
    ]
}